[
  {
    "uuid": "ABCD",
    "name": "Rasello team",
    "color": "#00fa92",
    "description": "this is the final demo",
    "locations": [
      {
        "district": "              ",
        "latitude": -5.91034,
        "longitude": 40.26977
      },
      {
        "district": "Test District 2",
        "latitude": -5.172144,
        "longitude": 36.640203
      }
    ]
  },
  {
    "uuid": 12345,
    "name": "Rasello team",
    "color": "#00fa92",
    "description": "this is the final demo",
    "locations": [
      {
        "district": "Test District 1",
        "latitude": -5.91034,
        "longitude": 40.26977
      },
      {
        "district": "Test District 2",
        "latitude": -5.172144,
        "longitude": 36.640203
      }
    ]
  },
  {
    "uuid": null,
    "name": "Rasello team",
    "color": "#00fa92",
    "description": "      ",
    "locations": [
      {
        "district": null,
        "latitude": -5.91034,
        "longitude": 40.26977
      },
      {
        "district": "",
        "latitude": -5.172144,
        "longitude": 36.640203
      }
    ]
  },
  {
    "uuid": null,
    "name": null,
    "color": "#00fa92",
    "description": "",
    "locations": [
      {
        "district": "Test District 1",
        "latitude": -5.91034,
        "longitude": 40.26977
      },
      {
        "district": "     ",
        "latitude": -5.172144,
        "longitude": 36.640203
      }
    ]
  },
  {
    "uuid": null,
    "name": "Rasello team",
    "color": "#00fa92",
    "description": null,
    "locations": [
      {
        "district": "Test District 1",
        "latitude": -91,
        "longitude": -181
      },
      {
        "district": "Test District 2",
        "latitude": 91,
        "longitude": 181
      }
    ]
  },
  {
    "name": "Final entry",
    "color": "#00fa92"
  }
]